{
    "posts": [
        {
            "category": "market",
            "location": {
                "address": "2166 Brookview Dr",
                "city": "Nashville",
                "state": "TN",
                "zip": "37214"
            },
            "content": {
                "title": "Yard Sale",
                "body": "Come buy my shit",
                "image": "http://fscomps.fotosearch.com/compc/CSP/CSP993/k14309403.jpg"
            },
            "uid": "12875",
            "timeStamp": ""
        },
         {
            "category": "crime",
            "location": {
                "address": "4038 Percy Priest Blvd",
                "city": "Nashville",
                "state": "TN",
                "zip": "37215"
            },
            "content": {
                "title": "Home burglary",
                "body": "Burglars broke in  between 8am and 5pm.",
                "image": "http://kiowasheriff.co/wp-content/uploads/2014/11/burglary_1546658c.jpg"
            },
            "uid": "97566",
            "timeStamp": ""
        },
         {
            "category": "market",
            "location": {
                "address": "115 Cottage Lane",
                "city": "Nashville",
                "state": "TN",
                "zip": "37214"
            },
            "content": {
                "title": "Free Puppies",
                "body": "Part poodle, part sneaky neighbor dog",
                "image": "http://cdn.theatlantic.com/static/mt/assets/jamesfallows/assets_c/2012/05/Bulldogs-thumb-250x187-87527.jpg"
            },
            "uid": "44545",
            "timeStamp": ""
        },
         {
            "category": "event",
            "location": {
                "address": "4028 Percy Warner Blvd ",
                "city": "Nashville",
                "state": "TN",
                "zip": "37205"
            },
            "content": {
                "title": "House Party",
                "body": "Gonna be rad!",
                "image": "http://cdn.grindtv.com/wp-content/uploads/2013/08/Vans-Party.jpg"
            },
            "uid": "67336",
            "timeStamp": ""
        }
    ]
}